[
  {
    "key": "museum",
    "name": "高知県立高知城歴史博物館",
    "description": "土佐藩や高知城の歴史を学べる博物館。企画展や収蔵資料の展示も行われます。",
    "url": "/images/maps/elements/buildings/KochiCastleMusium2.png",
    "lat": 33.5599801,
    "lng": 133.5340747,
    "widthPx": 201.59999999999997,
    "heightPx": 113.39999999999999,
    "showAtMinZoom": false
  },
  {
    "key": "otepia",
    "name": "オーテピア",
    "description": "図書館・科学館・点字図書館が入る複合施設。観光の立ち寄り先としても使いやすい場所です。",
    "url": "/images/maps/elements/buildings/Ohtepia.png",
    "lat": 33.5605212,
    "lng": 133.5371029,
    "widthPx": 174.72,
    "heightPx": 98.28,
    "showAtMinZoom": false
  },
  {
    "key": "castle",
    "name": "高知城",
    "description": "江戸時代の天守と本丸御殿が残る高知の代表的な史跡。日曜市周辺のランドマークです。",
    "url": "/images/maps/elements/buildings/KochiCastle.png",
    "lat": 33.5615208,
    "lng": 133.5311987,
    "widthPx": 358.4,
    "heightPx": 238.9333333333333,
    "showAtMinZoom": true
  },
  {
    "key": "densha",
    "name": "チンチン電車",
    "description": "高知市内を走る路面電車。街歩きの目印としても分かりやすい移動インフラです。",
    "url": "/images/maps/elements/buildings/Train.png",
    "lat": 33.5613531,
    "lng": 133.543104,
    "widthPx": 143.36,
    "heightPx": 71.68,
    "showAtMinZoom": true
  },
  {
    "key": "station",
    "name": "高知駅",
    "description": "JR高知駅。県外から日曜市へ向かうときの主要な玄関口です。",
    "url": "/images/maps/elements/buildings/kochistation.png",
    "lat": 33.5671869,
    "lng": 133.5436682,
    "widthPx": 120.96,
    "heightPx": 80.64,
    "showAtMinZoom": true
  },
  {
    "key": "ohtemae-school",
    "name": "追手前高校",
    "description": "日曜市エリア近くにある高校で、地図上では周辺位置を把握する目印になります。",
    "url": "/images/maps/elements/buildings/ohtemae-school.png",
    "lat": 33.5616992,
    "lng": 133.5365687,
    "widthPx": 127.67999999999999,
    "heightPx": 85.11999999999999,
    "showAtMinZoom": false
  },
  {
    "key": "hirome-market",
    "name": "ひろめ市場",
    "description": "高知の名物グルメが集まる人気スポット。日曜市と合わせて回りやすい観光拠点です。",
    "url": "/images/maps/elements/buildings/hirome-market.png",
    "lat": 33.5605993,
    "lng": 133.535527,
    "widthPx": 127.67999999999999,
    "heightPx": 85.11999999999999,
    "showAtMinZoom": false
  }
]
